{"markers":[{"id":"51260","smsCode":"51260","name":"Bandon Hill Cemetery","stopIndicator":"A","towards":"CROYDON","direction":"n","lat":51.36607832812416,"lng":-0.13217236388347467,"routes":[{"id":"455","name":"455"}]},{"id":"51509","smsCode":"51509","name":"Bandon Hill Cemetery","stopIndicator":"J","towards":"WALLINGTON","direction":"s","lat":51.36635463230684,"lng":-0.13201746268274225,"routes":[{"id":"455","name":"455"}]},{"id":"73961","smsCode":"73961","name":"Beddington Gardens","stopIndicator":"P","towards":"SHOTFIELD","direction":"w","lat":51.359205695339554,"lng":-0.15073681614341117,"routes":[{"id":"151","name":"151"},{"id":"410","name":"410"}]},{"id":"75525","smsCode":"75525","name":"Blenheim Gardens","stopIndicator":"P","towards":"COULSDON, PURLEY OR ROUNDSHAW","direction":"s","lat":51.35294134105095,"lng":-0.14811673683234752,"routes":[{"id":"127","name":"127"},{"id":"463","name":"463"},{"id":"612","name":"612"},{"id":"627","name":"627"},{"id":"S4","name":"S4"}]},{"id":"48314","smsCode":"48314","name":"Blenheim Gardens","stopIndicator":"Z","towards":"BEDDINGTON, BELMONT OR CARSHALTON","direction":"n","lat":51.353520592926195,"lng":-0.14835189231548668,"routes":[{"id":"127","name":"127"},{"id":"463","name":"463"},{"id":"612","name":"612"},{"id":"627","name":"627"},{"id":"S4","name":"S4"}]},{"id":"58986","smsCode":"58986","name":"Boundary Road","stopIndicator":null,"towards":"SUTTON","direction":"w","lat":51.35608383431973,"lng":-0.15463990100161412,"routes":[{"id":"154","name":"154"}]},{"id":"74907","smsCode":"74907","name":"Boundary Road","stopIndicator":null,"towards":"ROUNDSHAW","direction":"e","lat":51.355930589101554,"lng":-0.1569009799864726,"routes":[{"id":"154","name":"154"},{"id":"S4","name":"S4"}]},{"id":"75444","smsCode":"75444","name":"Bowman's Meadow","stopIndicator":"GB","towards":"WALLINGTON","direction":"s","lat":51.370992393790004,"lng":-0.15227337315970033,"routes":[{"id":"151","name":"151"}]},{"id":"55158","smsCode":"55158","name":"Bowman's Meadow","stopIndicator":"GN","towards":"ROSEHILL","direction":"n","lat":51.37079807708575,"lng":-0.1524967040895956,"routes":[{"id":"151","name":"151"}]},{"id":"58210","smsCode":"58210","name":"Butter Hill","stopIndicator":"GM","towards":"ROSEHILL","direction":"ne","lat":51.368901568897094,"lng":-0.15426830033477665,"routes":[{"id":"151","name":"151"}]},{"id":"55168","smsCode":"55168","name":"Carshalton Beeches Station","stopIndicator":null,"towards":"WALLINGTON","direction":"s","lat":51.357138570482974,"lng":-0.17028182393026772,"routes":[{"id":"154","name":"154"}]},{"id":"72896","smsCode":"72896","name":"Carshalton Beeches Station","stopIndicator":null,"towards":"SUTTON","direction":"n","lat":51.35748142545197,"lng":-0.17035434072640565,"routes":[{"id":"154","name":"154"}]},{"id":"71072","smsCode":"71072","name":"Carshalton College","stopIndicator":"C","towards":"WALLINGTON","direction":"s","lat":51.371456596734724,"lng":-0.1663634800685444,"routes":[{"id":"127","name":"127"},{"id":"157","name":"157"}]},{"id":"76556","smsCode":"76556","name":"Carshalton High Street","stopIndicator":"D","towards":"BEDDINGTON OR WALLINGTON","direction":"e","lat":51.36549957219772,"lng":-0.16038115265642564,"routes":[{"id":"127","name":"127"},{"id":"157","name":"157"},{"id":"407","name":"407"},{"id":"627","name":"627"},{"id":"X26","name":"X26"}]},{"id":"72769","smsCode":"72769","name":"Carshalton High Street","stopIndicator":"E","towards":"HACKBRIDGE, ROSEHILL OR SUTTON","direction":"sw","lat":51.36558534949777,"lng":-0.1595445123201293,"routes":[{"id":"127","name":"127"},{"id":"157","name":"157"},{"id":"407","name":"407"},{"id":"627","name":"627"},{"id":"X26","name":"X26"}]},{"id":"74092","smsCode":"74092","name":"Carshalton Pond","stopIndicator":"G","towards":"HACKBRIDGE OR ROSEHILL","direction":"n","lat":51.365897616822366,"lng":-0.1639709828310208,"routes":[{"id":"127","name":"127"},{"id":"157","name":"157"}]},{"id":"52513","smsCode":"52513","name":"Carshalton Pond","stopIndicator":"C","towards":"WALLINGTON","direction":"s","lat":51.36573269936982,"lng":-0.16377646023035147,"routes":[{"id":"127","name":"127"},{"id":"157","name":"157"}]},{"id":"47900","smsCode":"47900","name":"Carshalton Road / Cambridge Road","stopIndicator":null,"towards":"BEDDINGTON OR WALLINGTON","direction":"e","lat":51.36306261491967,"lng":-0.17072088217252906,"routes":[{"id":"154","name":"154"},{"id":"407","name":"407"},{"id":"627","name":"627"},{"id":"S3","name":"S3"}]},{"id":"49717","smsCode":"49717","name":"Carshalton Road / Cambridge Road","stopIndicator":null,"towards":"SUTTON","direction":"w","lat":51.36306158728487,"lng":-0.17353641544427645,"routes":[{"id":"154","name":"154"},{"id":"407","name":"407"},{"id":"627","name":"627"}]},{"id":"51300","smsCode":"51300","name":"Carshalton Station","stopIndicator":"B","towards":"WALLINGTON","direction":"se","lat":51.368303245850406,"lng":-0.1648373116739224,"routes":[{"id":"127","name":"127"},{"id":"157","name":"157"}]},{"id":"73516","smsCode":"73516","name":"Carshalton Station","stopIndicator":"A","towards":"HACKBRIDGE OR ROSEHILL","direction":"nw","lat":51.3685872422699,"lng":-0.16517075340629223,"routes":[{"id":"127","name":"127"},{"id":"157","name":"157"}]},{"id":"53189","smsCode":"53189","name":"Church Road","stopIndicator":"GT","towards":"CARSHALTON OR WALLINGTON","direction":"w","lat":51.369816871956004,"lng":-0.14163170948899598,"routes":[{"id":"407","name":"407"},{"id":"410","name":"410"},{"id":"463","name":"463"}]},{"id":"74788","smsCode":"74788","name":"Church Road","stopIndicator":"GS","towards":"EASTFIELDS OR WADDON","direction":"e","lat":51.369862333339086,"lng":-0.13996330358086487,"routes":[{"id":"407","name":"407"},{"id":"410","name":"410"},{"id":"463","name":"463"}]},{"id":"48167","smsCode":"48167","name":"Crichton Road","stopIndicator":null,"towards":"ROUNDSHAW","direction":"e","lat":51.353912929184,"lng":-0.1681555204769173,"routes":[{"id":"154","name":"154"}]},{"id":"50539","smsCode":"50539","name":"Crichton Road","stopIndicator":null,"towards":"SUTTON","direction":"w","lat":51.35367901878811,"lng":-0.16929943465810146,"routes":[{"id":"154","name":"154"},{"id":"S4","name":"S4"}]},{"id":"75424","smsCode":"75424","name":"Croydon Road / Wallington Green","stopIndicator":"GW","towards":"CARSHALTON OR WALLINGTON","direction":"sw","lat":51.36757960338138,"lng":-0.15255441305992673,"routes":[{"id":"407","name":"407"},{"id":"410","name":"410"},{"id":"463","name":"463"},{"id":"612","name":"612"},{"id":"X26","name":"X26"}]},{"id":"73612","smsCode":"73612","name":"Croydon Road / Wallington Green","stopIndicator":"GP","towards":"BEDDINGTON","direction":"e","lat":51.36758662192689,"lng":-0.15299948302881736,"routes":[{"id":"407","name":"407"},{"id":"410","name":"410"},{"id":"463","name":"463"},{"id":"612","name":"612"},{"id":"X26","name":"X26"}]},{"id":"50784","smsCode":"50784","name":"Downside Road","stopIndicator":null,"towards":"SUTTON","direction":"ne","lat":51.35761744852306,"lng":-0.17330770992748232,"routes":[{"id":"S3","name":"S3"}]},{"id":"48170","smsCode":"48170","name":"Downside Road","stopIndicator":null,"towards":"BELMONT","direction":"sw","lat":51.35678858578745,"lng":-0.17378592781379748,"routes":[{"id":"S3","name":"S3"}]},{"id":"50131","smsCode":"50131","name":"Elgin Road","stopIndicator":null,"towards":"CARSHALTON OR SUTTON","direction":"sw","lat":51.358065224838825,"lng":-0.14628705383144805,"routes":[{"id":"154","name":"154"},{"id":"157","name":"157"},{"id":"455","name":"455"}]},{"id":"48179","smsCode":"48179","name":"Elgin Road","stopIndicator":null,"towards":"CROYDON","direction":"e","lat":51.35849434804504,"lng":-0.1449913898142604,"routes":[{"id":"154","name":"154"},{"id":"157","name":"157"},{"id":"455","name":"455"}]},{"id":"47503","smsCode":"47503","name":"Guy Road","stopIndicator":"D","towards":"CROYDON OR POLLARDS HILL","direction":"e","lat":51.36912897407963,"lng":-0.1345624024259837,"routes":[{"id":"407","name":"407"},{"id":"410","name":"410"},{"id":"463","name":"463"}]},{"id":"58758","smsCode":"58758","name":"Hall Road","stopIndicator":"Y","towards":"BEDDINGTON, BELMONT OR CARSHALTON","direction":"n","lat":51.35093338406633,"lng":-0.14795356048718755,"routes":[{"id":"127","name":"127"},{"id":"463","name":"463"},{"id":"612","name":"612"},{"id":"627","name":"627"},{"id":"S4","name":"S4"}]},{"id":"52415","smsCode":"52415","name":"Hall Road","stopIndicator":"Q","towards":"COULSDON, PURLEY OR ROUNDSHAW","direction":"s","lat":51.35072509459958,"lng":-0.14786143270757043,"routes":[{"id":"127","name":"127"},{"id":"463","name":"463"},{"id":"612","name":"612"},{"id":"627","name":"627"},{"id":"S4","name":"S4"}]},{"id":"72390","smsCode":"72390","name":"Hilliers Lane","stopIndicator":"H","towards":"WALLINGTON","direction":"s","lat":51.36973724266114,"lng":-0.1332302919092603,"routes":[{"id":"455","name":"455"},{"id":"463","name":"463"}]},{"id":"74944","smsCode":"74944","name":"Hilliers Lane","stopIndicator":"B","towards":"CROYDON OR POLLARDS HILL","direction":"ne","lat":51.37038848003376,"lng":-0.13290209527016475,"routes":[{"id":"455","name":"455"},{"id":"463","name":"463"}]},{"id":"53533","smsCode":"53533","name":"Lordsbury Field","stopIndicator":"W","towards":"BEDDINGTON OR CARSHALTON","direction":"n","lat":51.34617975994636,"lng":-0.14703953141992138,"routes":[{"id":"127","name":"127"},{"id":"463","name":"463"},{"id":"612","name":"612"}]},{"id":"55678","smsCode":"55678","name":"Lordsbury Field","stopIndicator":"S","towards":"COULSDON OR PURLEY","direction":"s","lat":51.34483365872649,"lng":-0.14664869357362842,"routes":[{"id":"127","name":"127"},{"id":"463","name":"463"},{"id":"612","name":"612"}]},{"id":"47696","smsCode":"47696","name":"Manor Road / Acre Lane","stopIndicator":"GL","towards":"HACKBRIDGE","direction":"nw","lat":51.366647741026874,"lng":-0.15333894395569578,"routes":[{"id":"151","name":"151"}]},{"id":"71904","smsCode":"71904","name":"Manor Road North / Acre Lane","stopIndicator":"GC","towards":"WALLINGTON","direction":"se","lat":51.36779367968882,"lng":-0.15415481956140123,"routes":[{"id":"151","name":"151"}]},{"id":"51373","smsCode":"51373","name":"Mellows Park","stopIndicator":"B","towards":"CROYDON","direction":"e","lat":51.360068550812294,"lng":-0.13313504737379175,"routes":[{"id":"157","name":"157"}]},{"id":"48252","smsCode":"48252","name":"Mellows Park","stopIndicator":"W","towards":"CARSHALTON","direction":"w","lat":51.359853417213635,"lng":-0.13430726394166015,"routes":[{"id":"157","name":"157"}]},{"id":"52095","smsCode":"52095","name":"Milton Road","stopIndicator":null,"towards":"CARSHALTON OR SUTTON","direction":"w","lat":51.35890456889664,"lng":-0.14250429435463227,"routes":[{"id":"154","name":"154"},{"id":"157","name":"157"},{"id":"455","name":"455"}]},{"id":"55518","smsCode":"55518","name":"Milton Road","stopIndicator":null,"towards":"CROYDON","direction":"e","lat":51.35922091933754,"lng":-0.141471680677577,"routes":[{"id":"154","name":"154"},{"id":"157","name":"157"},{"id":"455","name":"455"}]},{"id":"71720","smsCode":"71720","name":"Park Lane","stopIndicator":"GH","towards":"PURLEY OR WADDON","direction":"se","lat":51.36522367058494,"lng":-0.15713124999404773,"routes":[{"id":"127","name":"127"},{"id":"157","name":"157"},{"id":"627","name":"627"}]},{"id":"57224","smsCode":"57224","name":"Park Lane","stopIndicator":"GF","towards":"HACKBRIDGE OR ROSEHILL","direction":"nw","lat":51.36539939251116,"lng":-0.1574402371872426,"routes":[{"id":"127","name":"127"},{"id":"157","name":"157"},{"id":"627","name":"627"}]},{"id":"52096","smsCode":"52096","name":"Parkgate Road","stopIndicator":"GJ","towards":"PURLEY OR WADDON","direction":"se","lat":51.36355698315605,"lng":-0.15237153282728613,"routes":[{"id":"127","name":"127"},{"id":"157","name":"157"},{"id":"627","name":"627"}]},{"id":"73640","smsCode":"73640","name":"Parkgate Road","stopIndicator":"GE","towards":"CARSHALTON","direction":"nw","lat":51.36362781652711,"lng":-0.15287145603737365,"routes":[{"id":"127","name":"127"},{"id":"157","name":"157"},{"id":"627","name":"627"}]},{"id":"56575","smsCode":"56575","name":"Pound Street","stopIndicator":"F","towards":"BEDDINGTON","direction":"ne","lat":51.3648650272624,"lng":-0.16521896852914006,"routes":[{"id":"407","name":"407"},{"id":"627","name":"627"}]},{"id":"73577","smsCode":"73577","name":"Pound Street","stopIndicator":null,"towards":"BELMONT OR SUTTON","direction":"sw","lat":51.364109449640154,"lng":-0.16635527820253448,"routes":[{"id":"407","name":"407"},{"id":"627","name":"627"},{"id":"S3","name":"S3"}]},{"id":"48378","smsCode":"48378","name":"Queens Road","stopIndicator":"GK","towards":"BEDDINGTON OR HACKBRIDGE","direction":"n","lat":51.364184188307625,"lng":-0.15165676366290462,"routes":[{"id":"151","name":"151"},{"id":"410","name":"410"},{"id":"463","name":"463"},{"id":"612","name":"612"}]},{"id":"59195","smsCode":"59195","name":"Queens Road","stopIndicator":"GD","towards":"COULSDON","direction":"s","lat":51.363774109956104,"lng":-0.15131414838183557,"routes":[{"id":"151","name":"151"},{"id":"410","name":"410"},{"id":"463","name":"463"},{"id":"612","name":"612"}]},{"id":"51676","smsCode":"51676","name":"Roundshaw / Phoenix Centre","stopIndicator":"G","towards":"CROYDON","direction":"e","lat":51.35288555870218,"lng":-0.13270895927783524,"routes":[{"id":"154","name":"154"},{"id":"455","name":"455"},{"id":"S4","name":"S4"}]},{"id":"52571","smsCode":"52571","name":"Roundshaw / Phoenix Centre","stopIndicator":"R","towards":"WALLINGTON","direction":"w","lat":51.352734673971455,"lng":-0.13226988447511007,"routes":[{"id":"154","name":"154"},{"id":"455","name":"455"},{"id":"S4","name":"S4"}]},{"id":"53171","smsCode":"53171","name":"Sandy Lane South","stopIndicator":"D","towards":"CROYDON","direction":"s","lat":51.358876569974,"lng":-0.13790910596353556,"routes":[{"id":"154","name":"154"},{"id":"455","name":"455"}]},{"id":"56134","smsCode":"56134","name":"Sandy Lane South","stopIndicator":"T","towards":"WALLINGTON","direction":"n","lat":51.35723164454819,"lng":-0.13852160375341108,"routes":[{"id":"154","name":"154"},{"id":"455","name":"455"}]},{"id":"76053","smsCode":"76053","name":"Shotfield","stopIndicator":"L","towards":"ROUNDSHAW","direction":"ne","lat":51.356702703290054,"lng":-0.1516850203543665,"routes":[{"id":"154","name":"154"}]},{"id":"56707","smsCode":"56707","name":"Stafford Road / Sandy Lane South","stopIndicator":"A","towards":"CROYDON","direction":"e","lat":51.35974541984699,"lng":-0.13712695373088668,"routes":[{"id":"157","name":"157"}]},{"id":"53997","smsCode":"53997","name":"Stafford Road / Sandy Lane South","stopIndicator":"U","towards":"CARSHALTON OR SUTTON","direction":"w","lat":51.35946291327067,"lng":-0.13858914819125562,"routes":[{"id":"154","name":"154"},{"id":"157","name":"157"},{"id":"455","name":"455"}]},{"id":"58698","smsCode":"58698","name":"Stafford Road / Woodcote Road","stopIndicator":"M","towards":"CROYDON","direction":"e","lat":51.357682702486834,"lng":-0.14825587983360553,"routes":[{"id":"154","name":"154"},{"id":"157","name":"157"},{"id":"455","name":"455"}]},{"id":"72395","smsCode":"72395","name":"Stafford Road / Woodcote Road","stopIndicator":"N","towards":"CARSHALTON OR SUTTON","direction":"w","lat":51.357563148451895,"lng":-0.1480883440309437,"routes":[{"id":"154","name":"154"},{"id":"157","name":"157"},{"id":"455","name":"455"}]},{"id":"54408","smsCode":"54408","name":"Stanley Road","stopIndicator":null,"towards":"SUTTON","direction":"sw","lat":51.354900746830054,"lng":-0.16175365699858527,"routes":[{"id":"154","name":"154"},{"id":"S4","name":"S4"}]},{"id":"54522","smsCode":"54522","name":"Stanley Road","stopIndicator":null,"towards":"ROUNDSHAW","direction":"e","lat":51.354916491059925,"lng":-0.16218389354658594,"routes":[{"id":"154","name":"154"}]},{"id":"76887","smsCode":"76887","name":"Staplehurst Road","stopIndicator":null,"towards":"SUTTON","direction":"ne","lat":51.354962069073714,"lng":-0.17545276773860838,"routes":[{"id":"S3","name":"S3"}]},{"id":"47272","smsCode":"47272","name":"Staplehurst Road","stopIndicator":null,"towards":"SUTTON","direction":"n","lat":51.35432265240389,"lng":-0.17135627141836787,"routes":[{"id":"154","name":"154"}]},{"id":"76315","smsCode":"76315","name":"Staplehurst Road","stopIndicator":null,"towards":"WALLINGTON","direction":"s","lat":51.35379398170405,"lng":-0.17147785461642712,"routes":[{"id":"154","name":"154"}]},{"id":"75736","smsCode":"75736","name":"The Holt","stopIndicator":"GU","towards":"CARSHALTON OR WALLINGTON","direction":"w","lat":51.36952851067459,"lng":-0.14443055026621907,"routes":[{"id":"407","name":"407"},{"id":"410","name":"410"},{"id":"463","name":"463"}]},{"id":"77725","smsCode":"77725","name":"The Holt","stopIndicator":"GR","towards":"EASTFIELDS OR WADDON","direction":"e","lat":51.36928595416268,"lng":-0.14614999959800404,"routes":[{"id":"407","name":"407"},{"id":"410","name":"410"},{"id":"463","name":"463"},{"id":"612","name":"612"}]},{"id":"56330","smsCode":"56330","name":"The Newlands","stopIndicator":"F","towards":"CROYDON","direction":"s","lat":51.352987248771356,"lng":-0.13740109063778153,"routes":[{"id":"154","name":"154"},{"id":"455","name":"455"}]},{"id":"51505","smsCode":"51505","name":"The Newlands","stopIndicator":"S","towards":"WALLINGTON","direction":"w","lat":51.35276311619478,"lng":-0.13687880143589912,"routes":[{"id":"154","name":"154"},{"id":"455","name":"455"},{"id":"S4","name":"S4"}]},{"id":"75882","smsCode":"75882","name":"Wales Avenue","stopIndicator":null,"towards":"WALLINGTON","direction":"s","lat":51.36190940580994,"lng":-0.1682817879954649,"routes":[{"id":"154","name":"154"}]},{"id":"52421","smsCode":"52421","name":"Wales Avenue","stopIndicator":null,"towards":"SUTTON","direction":"ne","lat":51.36103922071207,"lng":-0.1689916178589877,"routes":[{"id":"154","name":"154"}]},{"id":"48307","smsCode":"48307","name":"Wallington / Shotfield","stopIndicator":"E","towards":"BEDDINGTON","direction":"s","lat":51.35770222473042,"lng":-0.15119953191423283,"routes":[{"id":"410","name":"410"}]},{"id":"58883","smsCode":"58883","name":"Wallington / Shotfield","stopIndicator":"F","towards":"BEDDINGTON OR HACKBRIDGE","direction":"s","lat":51.35728768994418,"lng":-0.15114440677435517,"routes":[{"id":"151","name":"151"}]},{"id":"77822","smsCode":"77822","name":"Wallington County Grammar School","stopIndicator":"GV","towards":"CARSHALTON OR WALLINGTON","direction":"w","lat":51.368780799702336,"lng":-0.1483253906459059,"routes":[{"id":"407","name":"407"},{"id":"410","name":"410"},{"id":"463","name":"463"},{"id":"612","name":"612"}]},{"id":"55079","smsCode":"55079","name":"Wallington Station","stopIndicator":"C","towards":"BEDDINGTON, CARSHALTON OR HACKBRIDGE","direction":"s","lat":51.36078627277403,"lng":-0.15060133627350758,"routes":[{"id":"127","name":"127"},{"id":"151","name":"151"},{"id":"157","name":"157"},{"id":"410","name":"410"},{"id":"455","name":"455"}]},{"id":"71117","smsCode":"71117","name":"Wallington Station","stopIndicator":"D","towards":"COULSDON, SUTTON, BEDDINGTON OR ROUNDSHAW","direction":"s","lat":51.36068673592021,"lng":-0.15056225340044585,"routes":[{"id":"463","name":"463"},{"id":"612","name":"612"},{"id":"627","name":"627"},{"id":"S4","name":"S4"}]},{"id":"74593","smsCode":"74593","name":"Wallington Station  / Manor Road","stopIndicator":"A","towards":"PURLEY OR CROYDON","direction":"s","lat":51.361385001091705,"lng":-0.15036175533995755,"routes":[{"id":"127","name":"127"},{"id":"151","name":"151"},{"id":"157","name":"157"},{"id":"410","name":"410"},{"id":"612","name":"612"},{"id":"627","name":"627"}]},{"id":"48694","smsCode":"48694","name":"Wallington Town Centre","stopIndicator":"J","towards":"COULSDON, PURLEY OR WADDON","direction":"s","lat":51.3590433140851,"lng":-0.14956554580196,"routes":[{"id":"127","name":"127"},{"id":"157","name":"157"},{"id":"455","name":"455"},{"id":"463","name":"463"},{"id":"612","name":"612"},{"id":"627","name":"627"},{"id":"S4","name":"S4"}]},{"id":"73894","smsCode":"73894","name":"Wallington Town Centre","stopIndicator":"K","towards":"BEDDINGTON, CARSHALTON OR HACKBRIDGE","direction":"n","lat":51.35895684556703,"lng":-0.1497844831067883,"routes":[{"id":"127","name":"127"},{"id":"151","name":"151"},{"id":"157","name":"157"},{"id":"410","name":"410"},{"id":"455","name":"455"},{"id":"463","name":"463"},{"id":"612","name":"612"},{"id":"627","name":"627"},{"id":"S4","name":"S4"}]},{"id":"53858","smsCode":"53858","name":"Waterer Rise","stopIndicator":"E","towards":"CROYDON","direction":"s","lat":51.355951165283464,"lng":-0.13830062019478906,"routes":[{"id":"154","name":"154"},{"id":"455","name":"455"}]},{"id":"76611","smsCode":"76611","name":"Woodcote Green","stopIndicator":"R","towards":"COULSDON, PURLEY OR ROUNDSHAW","direction":"ne","lat":51.34797030826272,"lng":-0.14767094801820438,"routes":[{"id":"127","name":"127"},{"id":"463","name":"463"},{"id":"612","name":"612"},{"id":"627","name":"627"},{"id":"S4","name":"S4"}]},{"id":"75955","smsCode":"75955","name":"Woodcote Green","stopIndicator":"X","towards":"BEDDINGTON, BELMONT OR CARSHALTON","direction":"n","lat":51.3484655911059,"lng":-0.14828282574738105,"routes":[{"id":"127","name":"127"},{"id":"463","name":"463"},{"id":"612","name":"612"},{"id":"627","name":"627"},{"id":"S4","name":"S4"}]},{"id":"49398","smsCode":"49398","name":"Woodcote Road / Stafford Road","stopIndicator":"H","towards":"COULSDON, PURLEY OR ROUNDSHAW","direction":"s","lat":51.356724586104946,"lng":-0.14908447067618605,"routes":[{"id":"127","name":"127"},{"id":"463","name":"463"},{"id":"612","name":"612"},{"id":"627","name":"627"},{"id":"S4","name":"S4"}]},{"id":"56451","smsCode":"56451","name":"Woodcote Road / Stafford Road","stopIndicator":"G","towards":"BEDDINGTON, BELMONT OR CARSHALTON","direction":"n","lat":51.35651025925577,"lng":-0.14917928590368937,"routes":[{"id":"127","name":"127"},{"id":"463","name":"463"},{"id":"612","name":"612"},{"id":"627","name":"627"},{"id":"S4","name":"S4"}]},{"id":"56629","smsCode":"56629","name":"Wrythe Green","stopIndicator":"U","towards":"WALLINGTON","direction":"se","lat":51.37132893566719,"lng":-0.1702765001056955,"routes":[{"id":"157","name":"157"}]},{"id":"49008","smsCode":"49008","name":"Wrythe Green Road","stopIndicator":"V","towards":"WALLINGTON","direction":"ne","lat":51.371489391776414,"lng":-0.16845981088365602,"routes":[{"id":"157","name":"157"}]},{"id":"72162","smsCode":"72162","name":"Wrythe Recreation Ground","stopIndicator":"N","towards":"MORDEN","direction":"nw","lat":51.37140014206376,"lng":-0.1708052541259179,"routes":[{"id":"157","name":"157"}]}]}